{
  "type": "FeatureCollection",
  "features": [
    {
      "type": "Feature",
      "properties": {
        "City Feature": "Fire Stations",
        "Common Name": "Fire Station #25",
        "Address": "1300 E PINE ST",
        "Website": "",
        "Location": "(47.615568, -122.315096)"
      },
      "geometry": {
        "type": "Point",
        "coordinates": [
          -122.315096,
          47.615568
        ]
      }
    },
    {
      "type": "Feature",
      "properties": {
        "City Feature": "Computer/Media Center",
        "Common Name": "611 12th AV S STE 300",
        "Address": "Seattle Indian Center",
        "Website": "",
        "Location": "(47.59721, -122.31838)"
      },
      "geometry": {
        "type": "Point",
        "coordinates": [
          -122.31838,
          47.59721
        ]
      }
    },
    {
      "type": "Feature",
      "properties": {
        "City Feature": "Traffic Cameras",
        "Common Name": "",
        "Address": "I-5 at Pine Street",
        "Website": "http://www.seattle.gov/trafficcams/i5_pine.htm",
        "Location": "(47.614455, -122.329823)"
      },
      "geometry": {
        "type": "Point",
        "coordinates": [
          -122.329823,
          47.614455
        ]
      }
    },
    {
      "type": "Feature",
      "properties": {
        "City Feature": "Traffic Cameras",
        "Common Name": "",
        "Address": "Northgate Way and 5th Ave NE",
        "Website": "http://www.seattle.gov/trafficcams/northgate_5thb.htm",
        "Location": "(47.708594, -122.323277)"
      },
      "geometry": {
        "type": "Point",
        "coordinates": [
          -122.323277,
          47.708594
        ]
      }
    },
    {
      "type": "Feature",
      "properties": {
        "City Feature": "Traffic Cameras",
        "Common Name": "",
        "Address": "Northgate Way and 5th Ave NE",
        "Website": "http://www.seattle.gov/trafficcams/northgate_5thb.htm",
        "Location": "(47.708597, -122.323074)"
      },
      "geometry": {
        "type": "Point",
        "coordinates": [
          -122.323074,
          47.708597
        ]
      }
    },
    {
      "type": "Feature",
      "properties": {
        "City Feature": "Traffic Cameras",
        "Common Name": "",
        "Address": "Aurora Ave and Mercer St",
        "Website": "http://www.seattle.gov/trafficcams/aurora_mercer.htm",
        "Location": "(47.6245, -122.343659)"
      },
      "geometry": {
        "type": "Point",
        "coordinates": [
          -122.343659,
          47.6245
        ]
      }
    },
    {
      "type": "Feature",
      "properties": {
        "City Feature": "Traffic Cameras",
        "Common Name": "",
        "Address": "Fairview and Mercer St",
        "Website": "http://www.seattle.gov/trafficcams/fairview_mercer.htm",
        "Location": "(47.624539, -122.334291)"
      },
      "geometry": {
        "type": "Point",
        "coordinates": [
          -122.334291,
          47.624539
        ]
      }
    },
    {
      "type": "Feature",
      "properties": {
        "City Feature": "Traffic Cameras",
        "Common Name": "",
        "Address": "4th Ave South at I-90 Ramps",
        "Website": "http://www.seattle.gov/trafficcams/4thave_i90.htm",
        "Location": "(47.594286, -122.329052)"
      },
      "geometry": {
        "type": "Point",
        "coordinates": [
          -122.329052,
          47.594286
        ]
      }
    },
    {
      "type": "Feature",
      "properties": {
        "City Feature": "Traffic Cameras",
        "Common Name": "",
        "Address": "4th and Atlantic",
        "Website": "http://www.seattle.gov/trafficcams/4th_atlantic.htm",
        "Location": "(47.590302, -122.328841)"
      },
      "geometry": {
        "type": "Point",
        "coordinates": [
          -122.328841,
          47.590302
        ]
      }
    },
    {
      "type": "Feature",
      "properties": {
        "City Feature": "Traffic Cameras",
        "Common Name": "",
        "Address": "6th Ave S at S Spokane St",
        "Website": "http://www.seattle.gov/trafficcams/6th_Spokane.htm",
        "Location": "(47.571713, -122.325985)"
      },
      "geometry": {
        "type": "Point",
        "coordinates": [
          -122.325985,
          47.571713
        ]
      }
    },
    {
      "type": "Feature",
      "properties": {
        "City Feature": "Traffic Cameras",
        "Common Name": "",
        "Address": "3rd Ave S at S Lander St",
        "Website": "http://www.seattle.gov/trafficcams/3rd_Lander.htm",
        "Location": "(47.579807, -122.32999)"
      },
      "geometry": {
        "type": "Point",
        "coordinates": [
          -122.32999,
          47.579807
        ]
      }
    },
    {
      "type": "Feature",
      "properties": {
        "City Feature": "Traffic Cameras",
        "Common Name": "",
        "Address": "W Marginal Way at S Chelan St",
        "Website": "http://www.seattle.gov/trafficcams/Marginal_Chelan.htm",
        "Location": "(47.572095, -122.360011)"
      },
      "geometry": {
        "type": "Point",
        "coordinates": [
          -122.360011,
          47.572095
        ]
      }
    },
    {
      "type": "Feature",
      "properties": {
        "City Feature": "Traffic Cameras",
        "Common Name": "",
        "Address": "West Seattle Bridge at Delridge Exit",
        "Website": "http://www.seattle.gov/trafficcams/WSB_Delridge.htm",
        "Location": "(47.567063, -122.35676)"
      },
      "geometry": {
        "type": "Point",
        "coordinates": [
          -122.35676,
          47.567063
        ]
      }
    },
    {
      "type": "Feature",
      "properties": {
        "City Feature": "Traffic Cameras",
        "Common Name": "",
        "Address": "35th Avenue SW and Fauntleroy Way SW",
        "Website": "http://www.seattle.gov/trafficcams/35th_fauntleroy.htm",
        "Location": "(47.565038, -122.376192)"
      },
      "geometry": {
        "type": "Point",
        "coordinates": [
          -122.376192,
          47.565038
        ]
      }
    },
    {
      "type": "Feature",
      "properties": {
        "City Feature": "Traffic Cameras",
        "Common Name": "",
        "Address": "Fauntleroy Way SW and SW Alaska",
        "Website": "http://www.seattle.gov/trafficcams/fauntleroy_alaska.htm",
        "Location": "(47.561064, -122.376216)"
      },
      "geometry": {
        "type": "Point",
        "coordinates": [
          -122.376216,
          47.561064
        ]
      }
    },
    {
      "type": "Feature",
      "properties": {
        "City Feature": "Traffic Cameras",
        "Common Name": "",
        "Address": "1st Ave S at E Marginal Way S",
        "Website": "http://www.seattle.gov/trafficcams/1st_Marginal.htm",
        "Location": "(47.548269, -122.334313)"
      },
      "geometry": {
        "type": "Point",
        "coordinates": [
          -122.334313,
          47.548269
        ]
      }
    },
    {
      "type": "Feature",
      "properties": {
        "City Feature": "Traffic Cameras",
        "Common Name": "",
        "Address": "4th Ave S at S Michigan S",
        "Website": "http://www.seattle.gov/trafficcams/4th_Michigan.htm",
        "Location": "(47.545334, -122.329591)"
      },
      "geometry": {
        "type": "Point",
        "coordinates": [
          -122.329591,
          47.545334
        ]
      }
    },
    {
      "type": "Feature",
      "properties": {
        "City Feature": "Traffic Cameras",
        "Common Name": "",
        "Address": "145th at Lake City Way",
        "Website": "http://www.seattle.gov/trafficcams/145th_lakecity.htm",
        "Location": "(47.733755, -122.292232)"
      },
      "geometry": {
        "type": "Point",
        "coordinates": [
          -122.292232,
          47.733755
        ]
      }
    },
    {
      "type": "Feature",
      "properties": {
        "City Feature": "Traffic Cameras",
        "Common Name": "",
        "Address": "Lakecity Way at 125th",
        "Website": "http://www.seattle.gov/trafficcams/lakecity_125th.htm",
        "Location": "(47.719278, -122.295234)"
      },
      "geometry": {
        "type": "Point",
        "coordinates": [
          -122.295234,
          47.719278
        ]
      }
    },
    {
      "type": "Feature",
      "properties": {
        "City Feature": "Traffic Cameras",
        "Common Name": "",
        "Address": "15th Ave Ne at 80th",
        "Website": "http://www.seattle.gov/trafficcams/15th_80th.htm",
        "Location": "(47.686688, -122.313358)"
      },
      "geometry": {
        "type": "Point",
        "coordinates": [
          -122.313358,
          47.686688
        ]
      }
    },
    {
      "type": "Feature",
      "properties": {
        "City Feature": "Traffic Cameras",
        "Common Name": "",
        "Address": "Lake City Way at 15th",
        "Website": "http://www.seattle.gov/trafficcams/lakecity_15th.htm",
        "Location": "(47.687515, -122.312175)"
      },
      "geometry": {
        "type": "Point",
        "coordinates": [
          -122.312175,
          47.687515
        ]
      }
    },
    {
      "type": "Feature",
      "properties": {
        "City Feature": "Traffic Cameras",
        "Common Name": "",
        "Address": "I-5 at Northgate Way",
        "Website": "http://www.seattle.gov/trafficcams/i5_northgate.htm",
        "Location": "(47.708652, -122.330136)"
      },
      "geometry": {
        "type": "Point",
        "coordinates": [
          -122.330136,
          47.708652
        ]
      }
    },
    {
      "type": "Feature",
      "properties": {
        "City Feature": "Traffic Cameras",
        "Common Name": "",
        "Address": "I-5 at NE 85th Street",
        "Website": "http://www.seattle.gov/trafficcams/i5_85th.htm",
        "Location": "(47.690709, -122.329912)"
      },
      "geometry": {
        "type": "Point",
        "coordinates": [
          -122.329912,
          47.690709
        ]
      }
    },
    {
      "type": "Feature",
      "properties": {
        "City Feature": "Traffic Cameras",
        "Common Name": "",
        "Address": "I-5 at NE 45th Street",
        "Website": "http://www.seattle.gov/trafficcams/i5_45th.htm",
        "Location": "(47.661199, -122.322414)"
      },
      "geometry": {
        "type": "Point",
        "coordinates": [
          -122.322414,
          47.661199
        ]
      }
    },
    {
      "type": "Feature",
      "properties": {
        "City Feature": "Traffic Cameras",
        "Common Name": "",
        "Address": "North on Montlake Blvd at SR520",
        "Website": "http://www.seattle.gov/trafficcams/montlake_north.htm",
        "Location": "(47.644414, -122.304372)"
      },
      "geometry": {
        "type": "Point",
        "coordinates": [
          -122.304372,
          47.644414
        ]
      }
    },
    {
      "type": "Feature",
      "properties": {
        "City Feature": "Traffic Cameras",
        "Common Name": "",
        "Address": "SR 520 Midspan",
        "Website": "http://www.seattle.gov/trafficcams/sr520_midspan.htm",
        "Location": "(47.644568, -122.284455)"
      },
      "geometry": {
        "type": "Point",
        "coordinates": [
          -122.284455,
          47.644568
        ]
      }
    },
    {
      "type": "Feature",
      "properties": {
        "City Feature": "Traffic Cameras",
        "Common Name": "",
        "Address": "I-5 at Roanoke Street",
        "Website": "http://www.seattle.gov/trafficcams/i5_spokane.htm",
        "Location": "(47.643234, -122.323198)"
      },
      "geometry": {
        "type": "Point",
        "coordinates": [
          -122.323198,
          47.643234
        ]
      }
    },
    {
      "type": "Feature",
      "properties": {
        "City Feature": "Traffic Cameras",
        "Common Name": "",
        "Address": "I-5 at Mercer Street",
        "Website": "http://www.seattle.gov/trafficcams/i5_mercer.htm",
        "Location": "(47.624222, -122.328323)"
      },
      "geometry": {
        "type": "Point",
        "coordinates": [
          -122.328323,
          47.624222
        ]
      }
    },
    {
      "type": "Feature",
      "properties": {
        "City Feature": "Traffic Cameras",
        "Common Name": "",
        "Address": "Alaskan Way at Royal Brougham",
        "Website": "http://www.seattle.gov/trafficcams/alaskan_royal.htm",
        "Location": "(47.592394, -122.336546)"
      },
      "geometry": {
        "type": "Point",
        "coordinates": [
          -122.336546,
          47.592394
        ]
      }
    },
    {
      "type": "Feature",
      "properties": {
        "City Feature": "Traffic Cameras",
        "Common Name": "",
        "Address": "Alaskan Way at Terminal 42",
        "Website": "http://www.seattle.gov/trafficcams/alaskan_terminal42.htm",
        "Location": "(47.594305, -122.335154)"
      },
      "geometry": {
        "type": "Point",
        "coordinates": [
          -122.335154,
          47.594305
        ]
      }
    },
    {
      "type": "Feature",
      "properties": {
        "City Feature": "Traffic Cameras",
        "Common Name": "",
        "Address": "Harbor Island",
        "Website": "http://www.seattle.gov/trafficcams/harbor_island.htm",
        "Location": "(47.571733, -122.349782)"
      },
      "geometry": {
        "type": "Point",
        "coordinates": [
          -122.349782,
          47.571733
        ]
      }
    },
    {
      "type": "Feature",
      "properties": {
        "City Feature": "Traffic Cameras",
        "Common Name": "",
        "Address": "I-5 at Yesler Way",
        "Website": "http://www.seattle.gov/trafficcams/i5_yesler.htm",
        "Location": "(47.601668, -122.324898)"
      },
      "geometry": {
        "type": "Point",
        "coordinates": [
          -122.324898,
          47.601668
        ]
      }
    },
    {
      "type": "Feature",
      "properties": {
        "City Feature": "Traffic Cameras",
        "Common Name": "",
        "Address": "I-5/I-90 Interchange",
        "Website": "http://www.seattle.gov/trafficcams/i5_i90.htm",
        "Location": "(47.593365, -122.322192)"
      },
      "geometry": {
        "type": "Point",
        "coordinates": [
          -122.322192,
          47.593365
        ]
      }
    },
    {
      "type": "Feature",
      "properties": {
        "City Feature": "Traffic Cameras",
        "Common Name": "",
        "Address": "I-5 at Holgate Street",
        "Website": "http://www.seattle.gov/trafficcams/i5_holgate.htm",
        "Location": "(47.586386, -122.32072)"
      },
      "geometry": {
        "type": "Point",
        "coordinates": [
          -122.32072,
          47.586386
        ]
      }
    },
    {
      "type": "Feature",
      "properties": {
        "City Feature": "Traffic Cameras",
        "Common Name": "",
        "Address": "I-90 at 18th Avenue South",
        "Website": "http://www.seattle.gov/trafficcams/i90_18th.htm",
        "Location": "(47.589393, -122.309477)"
      },
      "geometry": {
        "type": "Point",
        "coordinates": [
          -122.309477,
          47.589393
        ]
      }
    },
    {
      "type": "Feature",
      "properties": {
        "City Feature": "Traffic Cameras",
        "Common Name": "",
        "Address": "I-90 Midspan",
        "Website": "http://www.seattle.gov/trafficcams/i90_midspan.htm",
        "Location": "(47.590148, -122.268192)"
      },
      "geometry": {
        "type": "Point",
        "coordinates": [
          -122.268192,
          47.590148
        ]
      }
    },
    {
      "type": "Feature",
      "properties": {
        "City Feature": "Traffic Cameras",
        "Common Name": "",
        "Address": "I-5 at Spokane Street",
        "Website": "http://www.seattle.gov/trafficcams/i5_spokane.htm",
        "Location": "(47.571453, -122.320755)"
      },
      "geometry": {
        "type": "Point",
        "coordinates": [
          -122.320755,
          47.571453
        ]
      }
    },
    {
      "type": "Feature",
      "properties": {
        "City Feature": "Traffic Cameras",
        "Common Name": "",
        "Address": "I-5 at Albro Place",
        "Website": "http://www.seattle.gov/trafficcams/i5_albro.htm",
        "Location": "(47.548715, -122.311985)"
      },
      "geometry": {
        "type": "Point",
        "coordinates": [
          -122.311985,
          47.548715
        ]
      }
    },
    {
      "type": "Feature",
      "properties": {
        "City Feature": "Traffic Cameras",
        "Common Name": "",
        "Address": "I-5 at Mid-Boeing Field",
        "Website": "http://www.seattle.gov/trafficcams/I5_Boeing.htm",
        "Location": "(47.52294, -122.291273)"
      },
      "geometry": {
        "type": "Point",
        "coordinates": [
          -122.291273,
          47.52294
        ]
      }
    },
    {
      "type": "Feature",
      "properties": {
        "City Feature": "Traffic Cameras",
        "Common Name": "",
        "Address": "SR-99 at Michigan Street",
        "Website": "http://www.seattle.gov/trafficcams/sr99_michigan.htm",
        "Location": "(47.54554, -122.333347)"
      },
      "geometry": {
        "type": "Point",
        "coordinates": [
          -122.333347,
          47.54554
        ]
      }
    },
    {
      "type": "Feature",
      "properties": {
        "City Feature": "Traffic Cameras",
        "Common Name": "",
        "Address": "SR-99 at West Marginal Way",
        "Website": "http://www.seattle.gov/trafficcams/sr99_westmarginal.htm",
        "Location": "(47.538958, -122.334664)"
      },
      "geometry": {
        "type": "Point",
        "coordinates": [
          -122.334664,
          47.538958
        ]
      }
    },
    {
      "type": "Feature",
      "properties": {
        "City Feature": "Traffic Cameras",
        "Common Name": "",
        "Address": "NE 45th St at Union Bay Place NE",
        "Website": "http://www.seattle.gov/trafficcams/45_Union_Bay.htm",
        "Location": "(47.661239, -122.292855)"
      },
      "geometry": {
        "type": "Point",
        "coordinates": [
          -122.292855,
          47.661239
        ]
      }
    },
    {
      "type": "Feature",
      "properties": {
        "City Feature": "Traffic Cameras",
        "Common Name": "",
        "Address": "Alaskan Way S at S Washington St",
        "Website": "http://www.seattle.gov/trafficcams/alaskan_wash.htm",
        "Location": "(47.600875, -122.33598)"
      },
      "geometry": {
        "type": "Point",
        "coordinates": [
          -122.33598,
          47.600875
        ]
      }
    },
    {
      "type": "Feature",
      "properties": {
        "City Feature": "Traffic Cameras",
        "Common Name": "",
        "Address": "Aurora Ave N at Aloha S",
        "Website": "http://www.seattle.gov/trafficcams/Aurora_Aloha.htm",
        "Location": "(47.627142, -122.343553)"
      },
      "geometry": {
        "type": "Point",
        "coordinates": [
          -122.343553,
          47.627142
        ]
      }
    },
    {
      "type": "Feature",
      "properties": {
        "City Feature": "Traffic Cameras",
        "Common Name": "",
        "Address": "Aurora Ave N and 145th St",
        "Website": "http://www.seattle.gov/trafficcams/aurora_145tha.htm",
        "Location": "(47.73429, -122.345105)"
      },
      "geometry": {
        "type": "Point",
        "coordinates": [
          -122.345105,
          47.73429
        ]
      }
    },
    {
      "type": "Feature",
      "properties": {
        "City Feature": "Traffic Cameras",
        "Common Name": "",
        "Address": "Aurora Ave N and 130th St",
        "Website": "http://www.seattle.gov/trafficcams/aurora_130tha.htm",
        "Location": "(47.723323, -122.344981)"
      },
      "geometry": {
        "type": "Point",
        "coordinates": [
          -122.344981,
          47.723323
        ]
      }
    },
    {
      "type": "Feature",
      "properties": {
        "City Feature": "Traffic Cameras",
        "Common Name": "",
        "Address": "Aurora Ave N and 130th St",
        "Website": "http://www.seattle.gov/trafficcams/aurora_130thb.htm",
        "Location": "(47.722915, -122.344766)"
      },
      "geometry": {
        "type": "Point",
        "coordinates": [
          -122.344766,
          47.722915
        ]
      }
    },
    {
      "type": "Feature",
      "properties": {
        "City Feature": "Traffic Cameras",
        "Common Name": "",
        "Address": "Aurora Ave N and 103rd St",
        "Website": "http://www.seattle.gov/trafficcams/aurora_103rd.htm",
        "Location": "(47.703601, -122.344679)"
      },
      "geometry": {
        "type": "Point",
        "coordinates": [
          -122.344679,
          47.703601
        ]
      }
    },
    {
      "type": "Feature",
      "properties": {
        "City Feature": "Traffic Cameras",
        "Common Name": "",
        "Address": "Aurora Ave N and 85th St",
        "Website": "http://www.seattle.gov/trafficcams/aurora_85th.htm",
        "Location": "(47.69065, -122.344518)"
      },
      "geometry": {
        "type": "Point",
        "coordinates": [
          -122.344518,
          47.69065
        ]
      }
    },
    {
      "type": "Feature",
      "properties": {
        "City Feature": "Traffic Cameras",
        "Common Name": "",
        "Address": "Aurora Ave N and Winona Ave N",
        "Website": "http://www.seattle.gov/trafficcams/aurora_winona.htm",
        "Location": "(47.681802, -122.346392)"
      },
      "geometry": {
        "type": "Point",
        "coordinates": [
          -122.346392,
          47.681802
        ]
      }
    },
    {
      "type": "Feature",
      "properties": {
        "City Feature": "Traffic Cameras",
        "Common Name": "",
        "Address": "Montlake Blvd NE at 25th Ave NE",
        "Website": "http://www.seattle.gov/trafficcams/Montlake_25th.htm",
        "Location": "(47.65898, -122.30114)"
      },
      "geometry": {
        "type": "Point",
        "coordinates": [
          -122.30114,
          47.65898
        ]
      }
    },
    {
      "type": "Feature",
      "properties": {
        "City Feature": "Traffic Cameras",
        "Common Name": "",
        "Address": "Montlake Blvd NE at Lake Washington Blvd",
        "Website": "http://www.seattle.gov/trafficcams/Montlake_LakeWash.htm",
        "Location": "(47.644011, -122.30415)"
      },
      "geometry": {
        "type": "Point",
        "coordinates": [
          -122.30415,
          47.644011
        ]
      }
    },
    {
      "type": "Feature",
      "properties": {
        "City Feature": "Traffic Cameras",
        "Common Name": "",
        "Address": "Aurora Ave N and 145th St",
        "Website": "http://www.seattle.gov/trafficcams/aurora_145thb.htm",
        "Location": "(47.733879, -122.345093)"
      },
      "geometry": {
        "type": "Point",
        "coordinates": [
          -122.345093,
          47.733879
        ]
      }
    },
    {
      "type": "Feature",
      "properties": {
        "City Feature": "Traffic Cameras",
        "Common Name": "",
        "Address": "Aurora Ave N and 105th St",
        "Website": "http://www.seattle.gov/trafficcams/aurora_105th.htm",
        "Location": "(47.705049, -122.344697)"
      },
      "geometry": {
        "type": "Point",
        "coordinates": [
          -122.344697,
          47.705049
        ]
      }
    },
    {
      "type": "Feature",
      "properties": {
        "City Feature": "Traffic Cameras",
        "Common Name": "",
        "Address": "Aurora Ave N and 87th St",
        "Website": "http://www.seattle.gov/trafficcams/aurora_87th.htm",
        "Location": "(47.69201, -122.344541)"
      },
      "geometry": {
        "type": "Point",
        "coordinates": [
          -122.344541,
          47.69201
        ]
      }
    },
    {
      "type": "Feature",
      "properties": {
        "City Feature": "Traffic Cameras",
        "Common Name": "",
        "Address": "Montlake Blvd NE at NE Pacific St",
        "Website": "http://www.seattle.gov/trafficcams/Montlake_Pacific.htm",
        "Location": "(47.651073, -122.30465)"
      },
      "geometry": {
        "type": "Point",
        "coordinates": [
          -122.30465,
          47.651073
        ]
      }
    },
    {
      "type": "Feature",
      "properties": {
        "City Feature": "Traffic Cameras",
        "Common Name": "",
        "Address": "NE Northgate Way and 1st Ave NE",
        "Website": "http://www.seattle.gov/trafficcams/northgate_1st.htm",
        "Location": "(47.708628, -122.328636)"
      },
      "geometry": {
        "type": "Point",
        "coordinates": [
          -122.328636,
          47.708628
        ]
      }
    },
    {
      "type": "Feature",
      "properties": {
        "City Feature": "Traffic Cameras",
        "Common Name": "",
        "Address": "Fairview and Valley St",
        "Website": "http://www.seattle.gov/trafficcams/fairview_valley.htm",
        "Location": "(47.625958, -122.334542)"
      },
      "geometry": {
        "type": "Point",
        "coordinates": [
          -122.334542,
          47.625958
        ]
      }
    },
    {
      "type": "Feature",
      "properties": {
        "City Feature": "Traffic Cameras",
        "Common Name": "",
        "Address": "Royal Brougham at Safeco Field",
        "Website": "http://www.seattle.gov/trafficcams/royal_safeco.htm",
        "Location": "(47.592394, -122.333266)"
      },
      "geometry": {
        "type": "Point",
        "coordinates": [
          -122.333266,
          47.592394
        ]
      }
    },
    {
      "type": "Feature",
      "properties": {
        "City Feature": "Traffic Cameras",
        "Common Name": "",
        "Address": "1st Ave S at S Holgate St",
        "Website": "http://www.seattle.gov/trafficcams/1st_Holgate.htm",
        "Location": "(47.586104, -122.335124)"
      },
      "geometry": {
        "type": "Point",
        "coordinates": [
          -122.335124,
          47.586104
        ]
      }
    },
    {
      "type": "Feature",
      "properties": {
        "City Feature": "Traffic Cameras",
        "Common Name": "",
        "Address": "West Seattle Bridge Mid-span",
        "Website": "http://www.seattle.gov/trafficcams/WSB_Mid-span.htm",
        "Location": "(47.571481, -122.363502)"
      },
      "geometry": {
        "type": "Point",
        "coordinates": [
          -122.363502,
          47.571481
        ]
      }
    },
    {
      "type": "Feature",
      "properties": {
        "City Feature": "Traffic Cameras",
        "Common Name": "",
        "Address": "E Marginal Way at S Hudson St",
        "Website": "http://www.seattle.gov/trafficcams/Marginal_Hudson.htm",
        "Location": "(47.557411, -122.339113)"
      },
      "geometry": {
        "type": "Point",
        "coordinates": [
          -122.339113,
          47.557411
        ]
      }
    },
    {
      "type": "Feature",
      "properties": {
        "City Feature": "Traffic Cameras",
        "Common Name": "",
        "Address": "Lake City Way at 145th",
        "Website": "http://www.seattle.gov/trafficcams/lakecity_145th.htm",
        "Location": "(47.733753, -122.292435)"
      },
      "geometry": {
        "type": "Point",
        "coordinates": [
          -122.292435,
          47.733753
        ]
      }
    },
    {
      "type": "Feature",
      "properties": {
        "City Feature": "Traffic Cameras",
        "Common Name": "",
        "Address": "125th at Lakecity Way",
        "Website": "http://www.seattle.gov/trafficcams/125th_lakecity.htm",
        "Location": "(47.71928, -122.295031)"
      },
      "geometry": {
        "type": "Point",
        "coordinates": [
          -122.295031,
          47.71928
        ]
      }
    },
    {
      "type": "Feature",
      "properties": {
        "City Feature": "Traffic Cameras",
        "Common Name": "",
        "Address": "I-5 at NE 145th Street",
        "Website": "http://www.seattle.gov/trafficcams/i5_145th.htm",
        "Location": "(47.734067, -122.325597)"
      },
      "geometry": {
        "type": "Point",
        "coordinates": [
          -122.325597,
          47.734067
        ]
      }
    },
    {
      "type": "Feature",
      "properties": {
        "City Feature": "Traffic Cameras",
        "Common Name": "",
        "Address": "I-5 at Lake City Way",
        "Website": "http://www.seattle.gov/trafficcams/i5_lakecityway.htm",
        "Location": "(47.681385, -122.320986)"
      },
      "geometry": {
        "type": "Point",
        "coordinates": [
          -122.320986,
          47.681385
        ]
      }
    },
    {
      "type": "Feature",
      "properties": {
        "City Feature": "Traffic Cameras",
        "Common Name": "",
        "Address": "SR 520 at Montlake Blvd",
        "Website": "http://www.seattle.gov/trafficcams/sr520_montlake.htm",
        "Location": "(47.644416, -122.30417)"
      },
      "geometry": {
        "type": "Point",
        "coordinates": [
          -122.30417,
          47.644416
        ]
      }
    },
    {
      "type": "Feature",
      "properties": {
        "City Feature": "Off Leash Areas",
        "Common Name": "Genesee Park & Playfield",
        "Address": "4316 S Genesee St.",
        "Website": "http://www.seattle.gov/parks/offleash_detail.asp?ID=409",
        "Location": "(47.563948, -122.276077)"
      },
      "geometry": {
        "type": "Point",
        "coordinates": [
          -122.276077,
          47.563948
        ]
      }
    },
    {
      "type": "Feature",
      "properties": {
        "City Feature": "Off Leash Areas",
        "Common Name": "Sand Point/Magnuson Park",
        "Address": "6550 Sand Point Way NE",
        "Website": "http://www.seattle.gov/parks/offleash_detail.asp?ID=398",
        "Location": "(47.682704, -122.257095)"
      },
      "geometry": {
        "type": "Point",
        "coordinates": [
          -122.257095,
          47.682704
        ]
      }
    },
    {
      "type": "Feature",
      "properties": {
        "City Feature": "Off Leash Areas",
        "Common Name": "Woodland Park",
        "Address": "Aurora Ave. N and N 59th St.",
        "Website": "http://www.seattle.gov/parks/offleash_detail.asp?ID=292",
        "Location": "(47.670424, -122.344309)"
      },
      "geometry": {
        "type": "Point",
        "coordinates": [
          -122.344309,
          47.670424
        ]
      }
    },
    {
      "type": "Feature",
      "properties": {
        "City Feature": "Off Leash Areas",
        "Common Name": "Plymouth Pillars Park",
        "Address": "Broen Ave and Pike St",
        "Website": "http://www.seattle.gov/parks/offleash_detail.asp?ID=4000",
        "Location": "(47.614124, -122.329092)"
      },
      "geometry": {
        "type": "Point",
        "coordinates": [
          -122.329092,
          47.614124
        ]
      }
    },
    {
      "type": "Feature",
      "properties": {
        "City Feature": "Off Leash Areas",
        "Common Name": "Sam Smith Park/Blue Dog Pond",
        "Address": "Martin Luther King Jr. Way & S Massachusetts St.",
        "Website": "http://www.seattle.gov/parks/offleash_detail.asp?ID=4242",
        "Location": "(47.588889, -122.298633)"
      },
      "geometry": {
        "type": "Point",
        "coordinates": [
          -122.298633,
          47.588889
        ]
      }
    },
    {
      "type": "Feature",
      "properties": {
        "City Feature": "Off Leash Areas",
        "Common Name": "Golden Gardens Park",
        "Address": "8498 Seaview Pl. NW",
        "Website": "http://www.seattle.gov/parks/offleash_detail.asp?ID=243",
        "Location": "(47.690902, -122.400637)"
      },
      "geometry": {
        "type": "Point",
        "coordinates": [
          -122.400637,
          47.690902
        ]
      }
    },
    {
      "type": "Feature",
      "properties": {
        "City Feature": "Off Leash Areas",
        "Common Name": "Dr. Jose Rizal Park",
        "Address": "1008 12th Ave. S",
        "Website": "http://www.seattle.gov/parks/offleash_detail.asp?ID=433",
        "Location": "(47.593859, -122.318094)"
      },
      "geometry": {
        "type": "Point",
        "coordinates": [
          -122.318094,
          47.593859
        ]
      }
    },
    {
      "type": "Feature",
      "properties": {
        "City Feature": "Off Leash Areas",
        "Common Name": "Northacres Park",
        "Address": "12718 1st Ave. NE",
        "Website": "http://www.seattle.gov/parks/offleash_detail.asp?ID=361",
        "Location": "(47.721775, -122.326124)"
      },
      "geometry": {
        "type": "Point",
        "coordinates": [
          -122.326124,
          47.721775
        ]
      }
    },
    {
      "type": "Feature",
      "properties": {
        "City Feature": "Off Leash Areas",
        "Common Name": "Regrade Park",
        "Address": "2251 3rd Ave.",
        "Website": "http://www.seattle.gov/parks/offleash_detail.asp?ID=336",
        "Location": "(47.614346, -122.344776)"
      },
      "geometry": {
        "type": "Point",
        "coordinates": [
          -122.344776,
          47.614346
        ]
      }
    },
    {
      "type": "Feature",
      "properties": {
        "City Feature": "Off Leash Areas",
        "Common Name": "Westcrest Park",
        "Address": "8806 8th Ave SW",
        "Website": "http://www.seattle.gov/parks/offleash_detail.asp?ID=468",
        "Location": "(47.525783, -122.341719)"
      },
      "geometry": {
        "type": "Point",
        "coordinates": [
          -122.341719,
          47.525783
        ]
      }
    },
    {
      "type": "Feature",
      "properties": {
        "City Feature": "Off Leash Areas",
        "Common Name": "I-5 Colonnade",
        "Address": "Beneath I-5, South of E Howe St",
        "Website": "http://www.seattle.gov/parks/offleash_detail.asp?ID=4446",
        "Location": "(47.634898, -122.323409)"
      },
      "geometry": {
        "type": "Point",
        "coordinates": [
          -122.323409,
          47.634898
        ]
      }
    },
    {
      "type": "Feature",
      "properties": {
        "City Feature": "Boat Launches",
        "Common Name": "Cormorant Cove Park Boat Launch",
        "Address": "3701 Beach Dr. SW",
        "Website": "http://www.seattle.gov/parks/park_detail.asp?ID=295",
        "Location": "(47.570967, -122.41126)"
      },
      "geometry": {
        "type": "Point",
        "coordinates": [
          -122.41126,
          47.570967
        ]
      }
    },
    {
      "type": "Feature",
      "properties": {
        "City Feature": "Boat Launches",
        "Common Name": "Lowman Park Boat Launch",
        "Address": "7017 Beach Dr. SW",
        "Website": "http://www.seattle.gov/parks/park_detail.asp?ID=461",
        "Location": "(47.540127, -122.397522)"
      },
      "geometry": {
        "type": "Point",
        "coordinates": [
          -122.397522,
          47.540127
        ]
      }
    },
    {
      "type": "Feature",
      "properties": {
        "City Feature": "Boat Launches",
        "Common Name": "Duwamish Waterway Park Boat Launch",
        "Address": "7900 10th Ave. S",
        "Website": "http://www.seattle.gov/parks/park_detail.asp?ID=705",
        "Location": "(47.531384, -122.319716)"
      },
      "geometry": {
        "type": "Point",
        "coordinates": [
          -122.319716,
          47.531384
        ]
      }
    },
    {
      "type": "Feature",
      "properties": {
        "City Feature": "Boat Launches",
        "Common Name": "Golden Gardens Park Boat Launch",
        "Address": "8498 Seaview Pl. NW",
        "Website": "http://www.seattle.gov/parks/park_detail.asp?ID=9999",
        "Location": "(47.689725, -122.403121)"
      },
      "geometry": {
        "type": "Point",
        "coordinates": [
          -122.403121,
          47.689725
        ]
      }
    },
    {
      "type": "Feature",
      "properties": {
        "City Feature": "Boat Launches",
        "Common Name": "Fairview Walkway Boat Launch",
        "Address": "2900 Fairview Ave. E",
        "Website": "http://www.seattle.gov/parks/park_detail.asp?ID=2975",
        "Location": "(47.631626, -122.327462)"
      },
      "geometry": {
        "type": "Point",
        "coordinates": [
          -122.327462,
          47.631626
        ]
      }
    },
    {
      "type": "Feature",
      "properties": {
        "City Feature": "Boat Launches",
        "Common Name": "Day Street Boat Launch",
        "Address": "1400 Lakeside Ave. S",
        "Website": "http://www.seattle.gov/parks/park_detail.asp?ID=4082",
        "Location": "(47.590064, -122.285738)"
      },
      "geometry": {
        "type": "Point",
        "coordinates": [
          -122.285738,
          47.590064
        ]
      }
    },
    {
      "type": "Feature",
      "properties": {
        "City Feature": "Boat Launches",
        "Common Name": "Stan Sayers/Mount Baker Rowing And Sailing Center Boat Launch",
        "Address": "3800 Lake Washington Blvd. S.",
        "Website": "http://www.seattle.gov/parks/park_detail.asp?ID=425",
        "Location": "(47.570356, -122.278219)"
      },
      "geometry": {
        "type": "Point",
        "coordinates": [
          -122.278219,
          47.570356
        ]
      }
    },
    {
      "type": "Feature",
      "properties": {
        "City Feature": "Boat Launches",
        "Common Name": "Sand Point Magnuson Park-North Shore Boat Launch",
        "Address": "6550 Sand Point Way NE",
        "Website": "http://www.seattle.gov/parks/park_detail.asp?ID=398",
        "Location": "(47.689261, -122.265028)"
      },
      "geometry": {
        "type": "Point",
        "coordinates": [
          -122.265028,
          47.689261
        ]
      }
    },
    {
      "type": "Feature",
      "properties": {
        "City Feature": "Boat Launches",
        "Common Name": "Lincoln Park Boat Launch",
        "Address": "8011 Fauntleroy Way SW",
        "Website": "http://www.seattle.gov/parks/park_detail.asp?ID=460",
        "Location": "(47.526098, -122.394806)"
      },
      "geometry": {
        "type": "Point",
        "coordinates": [
          -122.394806,
          47.526098
        ]
      }
    },
    {
      "type": "Feature",
      "properties": {
        "City Feature": "Boat Launches",
        "Common Name": "Green Lake Small Craft Center",
        "Address": "5900 W Green Lake Way N",
        "Website": "http://www.seattle.gov/parks/park_detail.asp?ID=9998",
        "Location": "(47.671761, -122.342949)"
      },
      "geometry": {
        "type": "Point",
        "coordinates": [
          -122.342949,
          47.671761
        ]
      }
    },
    {
      "type": "Feature",
      "properties": {
        "City Feature": "Boat Launches",
        "Common Name": "Alki Beach Park - West Boat Launch",
        "Address": "1702 Alki Ave. SW",
        "Website": "http://www.seattle.gov/parks/park_detail.asp?ID=445",
        "Location": "(47.578243, -122.414817)"
      },
      "geometry": {
        "type": "Point",
        "coordinates": [
          -122.414817,
          47.578243
        ]
      }
    },
    {
      "type": "Feature",
      "properties": {
        "City Feature": "Boat Launches",
        "Common Name": "Carkeek Park Landing",
        "Address": "950 NW Carkeek Park Rd.",
        "Website": "http://www.seattle.gov/parks/park_detail.asp?ID=240",
        "Location": "(47.712194, -122.379763)"
      },
      "geometry": {
        "type": "Point",
        "coordinates": [
          -122.379763,
          47.712194
        ]
      }
    },
    {
      "type": "Feature",
      "properties": {
        "City Feature": "Boat Launches",
        "Common Name": "Leschi Park Boat Ramp",
        "Address": "100 Lakeside Ave. S",
        "Website": "http://www.seattle.gov/parks/park_detail.asp?ID=367",
        "Location": "(47.601518, -122.284211)"
      },
      "geometry": {
        "type": "Point",
        "coordinates": [
          -122.284211,
          47.601518
        ]
      }
    },
    {
      "type": "Feature",
      "properties": {
        "City Feature": "Boat Launches",
        "Common Name": "14th Ave. Nw Boat Ramp",
        "Address": "NW 45th St. and 14 Ave. NW",
        "Website": "http://www.seattle.gov/parks/park_detail.asp?ID=4010",
        "Location": "(47.660775, -122.373536)"
      },
      "geometry": {
        "type": "Point",
        "coordinates": [
          -122.373536,
          47.660775
        ]
      }
    },
    {
      "type": "Feature",
      "properties": {
        "City Feature": "Boat Launches",
        "Common Name": "Richey View Point Launch",
        "Address": "63rd Ave. SW and Beach Dr. SW",
        "Website": "http://www.seattle.gov/parks/park_detail.asp?ID=80",
        "Location": "(47.57242, -122.413877)"
      },
      "geometry": {
        "type": "Point",
        "coordinates": [
          -122.413877,
          47.57242
        ]
      }
    },
    {
      "type": "Feature",
      "properties": {
        "City Feature": "Boat Launches",
        "Common Name": "Green Lake Park Cove Boat Lauch",
        "Address": "7201 E Green Lake Dr. N",
        "Website": "http://www.seattle.gov/parks/park_detail.asp?ID=307",
        "Location": "(47.678938, -122.330394)"
      },
      "geometry": {
        "type": "Point",
        "coordinates": [
          -122.330394,
          47.678938
        ]
      }
    },
    {
      "type": "Feature",
      "properties": {
        "City Feature": "Boat Launches",
        "Common Name": "Mccurdy Park Boat Launch",
        "Address": "E Hamlin St. and E Park Dr. E",
        "Website": "http://www.seattle.gov/parks/park_detail.asp?ID=372",
        "Location": "(47.645437, -122.299178)"
      },
      "geometry": {
        "type": "Point",
        "coordinates": [
          -122.299178,
          47.645437
        ]
      }
    },
    {
      "type": "Feature",
      "properties": {
        "City Feature": "Boat Launches",
        "Common Name": "32nd Ave. West Boat Launch",
        "Address": "The southern street end of 32nd Ave. W",
        "Website": "http://www.seattle.gov/parks/park_detail.asp?ID=317",
        "Location": "(47.632366, -122.398993)"
      },
      "geometry": {
        "type": "Point",
        "coordinates": [
          -122.398993,
          47.632366
        ]
      }
    },
    {
      "type": "Feature",
      "properties": {
        "City Feature": "Boat Launches",
        "Common Name": "Sunnyside Ave. N Boat Ramp",
        "Address": "2301 NE Northlake Way",
        "Website": "http://www.seattle.gov/parks/park_detail.asp?ID=3903",
        "Location": "(47.650292, -122.330723)"
      },
      "geometry": {
        "type": "Point",
        "coordinates": [
          -122.330723,
          47.650292
        ]
      }
    },
    {
      "type": "Feature",
      "properties": {
        "City Feature": "Boat Launches",
        "Common Name": "Fairview Park  Boat Launch",
        "Address": "2900 Fairview Ave. E",
        "Website": "http://www.seattle.gov/parks/park_detail.asp?ID=2975",
        "Location": "(47.647413, -122.325368)"
      },
      "geometry": {
        "type": "Point",
        "coordinates": [
          -122.325368,
          47.647413
        ]
      }
    },
    {
      "type": "Feature",
      "properties": {
        "City Feature": "Boat Launches",
        "Common Name": "Ferdinand Street Boat Launch",
        "Address": "100 Lakeside Ave. S",
        "Website": "http://www.seattle.gov/parks/park_detail.asp?ID=367",
        "Location": "(47.557318, -122.261655)"
      },
      "geometry": {
        "type": "Point",
        "coordinates": [
          -122.261655,
          47.557318
        ]
      }
    },
    {
      "type": "Feature",
      "properties": {
        "City Feature": "Boat Launches",
        "Common Name": "Terry Pettus Park Boat Launch",
        "Address": "E Newton St. and Fairview Ave. E",
        "Website": "http://www.seattle.gov/parks/park_detail.asp?ID=3889",
        "Location": "(47.636752, -122.329456)"
      },
      "geometry": {
        "type": "Point",
        "coordinates": [
          -122.329456,
          47.636752
        ]
      }
    },
    {
      "type": "Feature",
      "properties": {
        "City Feature": "Boat Launches",
        "Common Name": "Seacrest Park Boat Launch",
        "Address": "1531 California Way SW",
        "Website": "http://www.seattle.gov/parks/park_detail.asp?ID=455",
        "Location": "(47.589941, -122.381226)"
      },
      "geometry": {
        "type": "Point",
        "coordinates": [
          -122.381226,
          47.589941
        ]
      }
    },
    {
      "type": "Feature",
      "properties": {
        "City Feature": "Boat Launches",
        "Common Name": "Atlantic City Boat Ramp",
        "Address": "8702 Seward Park Ave. S",
        "Website": "http://www.seattle.gov/parks/park_detail.asp?ID=4081",
        "Location": "(47.522834, -122.263078)"
      },
      "geometry": {
        "type": "Point",
        "coordinates": [
          -122.263078,
          47.522834
        ]
      }
    },
    {
      "type": "Feature",
      "properties": {
        "City Feature": "Boat Launches",
        "Common Name": "South Lake Union Park Boat Launch",
        "Address": "1000 Valley St.",
        "Website": "http://www.seattle.gov/parks/park_detail.asp?ID=344",
        "Location": "(47.627015, -122.338848)"
      },
      "geometry": {
        "type": "Point",
        "coordinates": [
          -122.338848,
          47.627015
        ]
      }
    },
    {
      "type": "Feature",
      "properties": {
        "City Feature": "Boat Launches",
        "Common Name": "Green Lake Park East Boat Launch",
        "Address": "foot of NE 64th St.",
        "Website": "http://www.seattle.gov/parks/park_detail.asp?ID=9996",
        "Location": "(47.675506, -122.334113)"
      },
      "geometry": {
        "type": "Point",
        "coordinates": [
          -122.334113,
          47.675506
        ]
      }
    },
    {
      "type": "Feature",
      "properties": {
        "City Feature": "Boat Launches",
        "Common Name": "Beer Sheva Park Boat Launch",
        "Address": "8650 55th Ave. S",
        "Website": "http://www.seattle.gov/parks/park_detail.asp?ID=440",
        "Location": "(47.523512, -122.262859)"
      },
      "geometry": {
        "type": "Point",
        "coordinates": [
          -122.262859,
          47.523512
        ]
      }
    },
    {
      "type": "Feature",
      "properties": {
        "City Feature": "Boat Launches",
        "Common Name": "Matthews Beach Boat Launch",
        "Address": "9300 51st Ave. NE",
        "Website": "http://www.seattle.gov/parks/park_detail.asp?ID=347",
        "Location": "(47.694564, -122.271785)"
      },
      "geometry": {
        "type": "Point",
        "coordinates": [
          -122.271785,
          47.694564
        ]
      }
    },
    {
      "type": "Feature",
      "properties": {
        "City Feature": "Boat Launches",
        "Common Name": "Martha Washington Park Boat Launch",
        "Address": "6612 57th Ave. S",
        "Website": "http://www.seattle.gov/parks/park_detail.asp?ID=432",
        "Location": "(47.542212, -122.259287)"
      },
      "geometry": {
        "type": "Point",
        "coordinates": [
          -122.259287,
          47.542212
        ]
      }
    },
    {
      "type": "Feature",
      "properties": {
        "City Feature": "Boat Launches",
        "Common Name": "South Passage Park Boat Launch",
        "Address": "3320 Fuhrman Ave. E",
        "Website": "http://www.seattle.gov/parks/park_detail.asp?ID=377",
        "Location": "(47.652087, -122.322486)"
      },
      "geometry": {
        "type": "Point",
        "coordinates": [
          -122.322486,
          47.652087
        ]
      }
    },
    {
      "type": "Feature",
      "properties": {
        "City Feature": "Boat Launches",
        "Common Name": "Alki Beach Park - East Boat Launch",
        "Address": "1702 Alki Ave. SW",
        "Website": "http://www.seattle.gov/parks/park_detail.asp?ID=445",
        "Location": "(47.582912, -122.402173)"
      },
      "geometry": {
        "type": "Point",
        "coordinates": [
          -122.402173,
          47.582912
        ]
      }
    },
    {
      "type": "Feature",
      "properties": {
        "City Feature": "Boat Launches",
        "Common Name": "Magnuson Park Boat Ramp",
        "Address": "6550 Sand Point Way NE",
        "Website": "http://www.seattle.gov/parks/park_detail.asp?ID=398",
        "Location": "(47.676856, -122.250113)"
      },
      "geometry": {
        "type": "Point",
        "coordinates": [
          -122.250113,
          47.676856
        ]
      }
    },
    {
      "type": "Feature",
      "properties": {
        "City Feature": "Boat Launches",
        "Common Name": "Green Lake Park West Boat Launch",
        "Address": "NW of Duck Island",
        "Website": "http://www.seattle.gov/parks/park_detail.asp?ID=9995",
        "Location": "(47.680833, -122.342511)"
      },
      "geometry": {
        "type": "Point",
        "coordinates": [
          -122.342511,
          47.680833
        ]
      }
    },
    {
      "type": "Feature",
      "properties": {
        "City Feature": "Boat Launches",
        "Common Name": "Washington Park And Arboretum Boat Launch",
        "Address": "2300 Arboretum Dr. E",
        "Website": "http://www.seattle.gov/parks/park_detail.asp?ID=393",
        "Location": "(47.641707, -122.292647)"
      },
      "geometry": {
        "type": "Point",
        "coordinates": [
          -122.292647,
          47.641707
        ]
      }
    },
    {
      "type": "Feature",
      "properties": {
        "City Feature": "Boat Launches",
        "Common Name": "Seward Park Boat Launch",
        "Address": "5902 Lake Washington Blvd. S",
        "Website": "http://www.seattle.gov/parks/park_detail.asp?ID=428",
        "Location": "(47.54923, -122.250639)"
      },
      "geometry": {
        "type": "Point",
        "coordinates": [
          -122.250639,
          47.54923
        ]
      }
    },
    {
      "type": "Feature",
      "properties": {
        "City Feature": "Boat Launches",
        "Common Name": "Eddie Vine Boat Ramp",
        "Address": "8001 Seaview Ave. NW",
        "Website": "http://www.seattle.gov/parks/park_detail.asp?ID=243",
        "Location": "(47.686852, -122.403454)"
      },
      "geometry": {
        "type": "Point",
        "coordinates": [
          -122.403454,
          47.686852
        ]
      }
    },
    {
      "type": "Feature",
      "properties": {
        "City Feature": "Boat Launches",
        "Common Name": "Magnuson Park Boat Launch",
        "Address": "6550 Sand Point Way NE",
        "Website": "http://www.seattle.gov/parks/park_detail.asp?ID=398",
        "Location": "(47.675322, -122.250151)"
      },
      "geometry": {
        "type": "Point",
        "coordinates": [
          -122.250151,
          47.675322
        ]
      }
    },
    {
      "type": "Feature",
      "properties": {
        "City Feature": "Boat Launches",
        "Common Name": "Stan Sayers Memorial Park Boat Ramp",
        "Address": "3800 Lake Washington Blvd. S.",
        "Website": "http://www.seattle.gov/parks/park_detail.asp?ID=425",
        "Location": "(47.571222, -122.277162)"
      },
      "geometry": {
        "type": "Point",
        "coordinates": [
          -122.277162,
          47.571222
        ]
      }
    },
    {
      "type": "Feature",
      "properties": {
        "City Feature": "Boat Launches",
        "Common Name": "Don Armeni Boat Ramp",
        "Address": "1222 Harbor Ave. SW",
        "Website": "http://www.seattle.gov/parks/park_detail.asp?ID=3917",
        "Location": "(47.59274, -122.382295)"
      },
      "geometry": {
        "type": "Point",
        "coordinates": [
          -122.382295,
          47.59274
        ]
      }
    },
    {
      "type": "Feature",
      "properties": {
        "City Feature": "Libraries",
        "Common Name": "Broadview",
        "Address": "12755 GREENWOOD AV N",
        "Website": "http://www.spl.org/default.asp?pageID=branch_open&branchID=5",
        "Location": "(47.723004, -122.356032)"
      },
      "geometry": {
        "type": "Point",
        "coordinates": [
          -122.356032,
          47.723004
        ]
      }
    },
    {
      "type": "Feature",
      "properties": {
        "City Feature": "Libraries",
        "Common Name": "Delridge",
        "Address": "5423 DELRIDGE WAY SW",
        "Website": "http://www.spl.org/default.asp?pageID=branch_open&branchID=8",
        "Location": "(47.553047, -122.363319)"
      },
      "geometry": {
        "type": "Point",
        "coordinates": [
          -122.363319,
          47.553047
        ]
      }
    },
    {
      "type": "Feature",
      "properties": {
        "City Feature": "Libraries",
        "Common Name": "Green Lake",
        "Address": "7364 E GREEN LAKE DR N",
        "Website": "http://www.spl.org/default.asp?pageID=branch_open&branchID=11",
        "Location": "(47.681501, -122.326717)"
      },
      "geometry": {
        "type": "Point",
        "coordinates": [
          -122.326717,
          47.681501
        ]
      }
    },
    {
      "type": "Feature",
      "properties": {
        "City Feature": "Libraries",
        "Common Name": "International District",
        "Address": "713 8TH AV S",
        "Website": "http://www.spl.org/default.asp?pageID=branch_open&branchID=14",
        "Location": "(47.596249, -122.322834)"
      },
      "geometry": {
        "type": "Point",
        "coordinates": [
          -122.322834,
          47.596249
        ]
      }
    },
    {
      "type": "Feature",
      "properties": {
        "City Feature": "Libraries",
        "Common Name": "Mobile Services",
        "Address": "2025 9TH AV",
        "Website": "http://www.spl.org/default.asp?pageID=branch_mobile&branchID=30",
        "Location": "(47.616804, -122.337025)"
      },
      "geometry": {
        "type": "Point",
        "coordinates": [
          -122.337025,
          47.616804
        ]
      }
    },
    {
      "type": "Feature",
      "properties": {
        "City Feature": "Libraries",
        "Common Name": "Lake City",
        "Address": "12501 28TH AV NE",
        "Website": "http://www.spl.org/default.asp?pageID=branch_open&branchID=15",
        "Location": "(47.719861, -122.298087)"
      },
      "geometry": {
        "type": "Point",
        "coordinates": [
          -122.298087,
          47.719861
        ]
      }
    },
    {
      "type": "Feature",
      "properties": {
        "City Feature": "Libraries",
        "Common Name": "Madrona\\Sally Goldmark",
        "Address": "1134 33RD AV",
        "Website": "http://www.spl.org/default.asp?pageID=branch_open&branchID=16",
        "Location": "(47.612674, -122.290014)"
      },
      "geometry": {
        "type": "Point",
        "coordinates": [
          -122.290014,
          47.612674
        ]
      }
    },
    {
      "type": "Feature",
      "properties": {
        "City Feature": "Libraries",
        "Common Name": "Magnolia",
        "Address": "2801 34TH AV W",
        "Website": "http://www.spl.org/default.asp?pageID=branch_open&branchID=17",
        "Location": "(47.645316, -122.401344)"
      },
      "geometry": {
        "type": "Point",
        "coordinates": [
          -122.401344,
          47.645316
        ]
      }
    },
    {
      "type": "Feature",
      "properties": {
        "City Feature": "Libraries",
        "Common Name": "Montlake",
        "Address": "2401 24TH AV E",
        "Website": "http://www.spl.org/default.asp?pageID=branch_open&branchID=18",
        "Location": "(47.639747, -122.301591)"
      },
      "geometry": {
        "type": "Point",
        "coordinates": [
          -122.301591,
          47.639747
        ]
      }
    },
    {
      "type": "Feature",
      "properties": {
        "City Feature": "Libraries",
        "Common Name": "Newholly",
        "Address": "7058 32ND AV S",
        "Website": "http://www.spl.org/default.asp?pageID=branch_open&branchID=19",
        "Location": "(47.538994, -122.290951)"
      },
      "geometry": {
        "type": "Point",
        "coordinates": [
          -122.290951,
          47.538994
        ]
      }
    },
    {
      "type": "Feature",
      "properties": {
        "City Feature": "Libraries",
        "Common Name": "North East",
        "Address": "6801 35TH AV NE",
        "Website": "http://www.spl.org/default.asp?pageID=branch_open&branchID=20",
        "Location": "(47.677854, -122.290711)"
      },
      "geometry": {
        "type": "Point",
        "coordinates": [
          -122.290711,
          47.677854
        ]
      }
    },
    {
      "type": "Feature",
      "properties": {
        "City Feature": "Libraries",
        "Common Name": "Northgate",
        "Address": "10548 5TH AV NE",
        "Website": "http://www.spl.org/default.asp?pageID=branch_open&branchID=21",
        "Location": "(47.706193, -122.322677)"
      },
      "geometry": {
        "type": "Point",
        "coordinates": [
          -122.322677,
          47.706193
        ]
      }
    },
    {
      "type": "Feature",
      "properties": {
        "City Feature": "Libraries",
        "Common Name": "Queen Anne",
        "Address": "400 W GARFIELD ST",
        "Website": "http://www.spl.org/default.asp?pageID=branch_open&branchID=22",
        "Location": "(47.633781, -122.362744)"
      },
      "geometry": {
        "type": "Point",
        "coordinates": [
          -122.362744,
          47.633781
        ]
      }
    },
    {
      "type": "Feature",
      "properties": {
        "City Feature": "Libraries",
        "Common Name": "Rainier Beach",
        "Address": "9125 RAINIER AV S",
        "Website": "http://www.spl.org/default.asp?pageID=branch_open&branchID=23",
        "Location": "(47.521356, -122.270465)"
      },
      "geometry": {
        "type": "Point",
        "coordinates": [
          -122.270465,
          47.521356
        ]
      }
    },
    {
      "type": "Feature",
      "properties": {
        "City Feature": "Libraries",
        "Common Name": "Southwest",
        "Address": "9010 35TH AV SW",
        "Website": "http://www.spl.org/default.asp?pageID=branch_open&branchID=26",
        "Location": "(47.522442, -122.376182)"
      },
      "geometry": {
        "type": "Point",
        "coordinates": [
          -122.376182,
          47.522442
        ]
      }
    },
    {
      "type": "Feature",
      "properties": {
        "City Feature": "Libraries",
        "Common Name": "Talking Book\\  & Braille",
        "Address": "2021 9TH AV",
        "Website": "http://www.wtbbl.org/",
        "Location": "(47.61668, -122.336823)"
      },
      "geometry": {
        "type": "Point",
        "coordinates": [
          -122.336823,
          47.61668
        ]
      }
    },
    {
      "type": "Feature",
      "properties": {
        "City Feature": "Libraries",
        "Common Name": "University",
        "Address": "5009 ROOSEVELT WY NE",
        "Website": "http://www.spl.org/default.asp?pageID=branch_open&branchID=27",
        "Location": "(47.665539, -122.317863)"
      },
      "geometry": {
        "type": "Point",
        "coordinates": [
          -122.317863,
          47.665539
        ]
      }
    },
    {
      "type": "Feature",
      "properties": {
        "City Feature": "Libraries",
        "Common Name": "Wallingford",
        "Address": "1501 N 45TH ST",
        "Website": "http://www.spl.org/default.asp?pageID=branch_open&branchID=28",
        "Location": "(47.661174, -122.339104)"
      },
      "geometry": {
        "type": "Point",
        "coordinates": [
          -122.339104,
          47.661174
        ]
      }
    },
    {
      "type": "Feature",
      "properties": {
        "City Feature": "Libraries",
        "Common Name": "West Seattle",
        "Address": "2306 42ND AV SW",
        "Website": "http://www.spl.org/default.asp?pageID=branch_open&branchID=29",
        "Location": "(47.582695, -122.384757)"
      },
      "geometry": {
        "type": "Point",
        "coordinates": [
          -122.384757,
          47.582695
        ]
      }
    },
    {
      "type": "Feature",
      "properties": {
        "City Feature": "Libraries",
        "Common Name": "Ballard",
        "Address": "5614 22ND AV NW",
        "Website": "http://www.spl.org/default.asp?pageID=branch_open&branchID=3",
        "Location": "(47.669843, -122.384204)"
      },
      "geometry": {
        "type": "Point",
        "coordinates": [
          -122.384204,
          47.669843
        ]
      }
    },
    {
      "type": "Feature",
      "properties": {
        "City Feature": "Libraries",
        "Common Name": "Beacon Hill",
        "Address": "2821 BEACON AV S",
        "Website": "http://www.spl.org/default.asp?pageID=branch_open&branchID=4",
        "Location": "(47.578046, -122.311407)"
      },
      "geometry": {
        "type": "Point",
        "coordinates": [
          -122.311407,
          47.578046
        ]
      }
    },
    {
      "type": "Feature",
      "properties": {
        "City Feature": "Libraries",
        "Common Name": "Capitol Hill",
        "Address": "425 HARVARD AV E",
        "Website": "http://www.spl.org/default.asp?pageID=branch_open&branchID=6",
        "Location": "(47.622914, -122.322451)"
      },
      "geometry": {
        "type": "Point",
        "coordinates": [
          -122.322451,
          47.622914
        ]
      }
    },
    {
      "type": "Feature",
      "properties": {
        "City Feature": "Libraries",
        "Common Name": "Central",
        "Address": "1000 4TH AV",
        "Website": "http://www.spl.org/default.asp?pageID=branch_central&branchID=1",
        "Location": "(47.606485, -122.332968)"
      },
      "geometry": {
        "type": "Point",
        "coordinates": [
          -122.332968,
          47.606485
        ]
      }
    },
    {
      "type": "Feature",
      "properties": {
        "City Feature": "Libraries",
        "Common Name": "Columbia",
        "Address": "4721 RAINIER AV S",
        "Website": "http://www.spl.org/default.asp?pageID=branch_open&branchID=7",
        "Location": "(47.559947, -122.286879)"
      },
      "geometry": {
        "type": "Point",
        "coordinates": [
          -122.286879,
          47.559947
        ]
      }
    },
    {
      "type": "Feature",
      "properties": {
        "City Feature": "Libraries",
        "Common Name": "Douglas-Truth",
        "Address": "2300 E YESLER WAY",
        "Website": "http://www.spl.org/default.asp?pageID=branch_open&branchID=9",
        "Location": "(47.601903, -122.301832)"
      },
      "geometry": {
        "type": "Point",
        "coordinates": [
          -122.301832,
          47.601903
        ]
      }
    },
    {
      "type": "Feature",
      "properties": {
        "City Feature": "Libraries",
        "Common Name": "Fremont",
        "Address": "731 N 35TH ST",
        "Website": "http://www.spl.org/default.asp?pageID=branch_open&branchID=10",
        "Location": "(47.650068, -122.3484)"
      },
      "geometry": {
        "type": "Point",
        "coordinates": [
          -122.3484,
          47.650068
        ]
      }
    },
    {
      "type": "Feature",
      "properties": {
        "City Feature": "Libraries",
        "Common Name": "Greenwood",
        "Address": "8016 GREENWOOD AV N",
        "Website": "http://www.spl.org/default.asp?pageID=branch_open&branchID=12",
        "Location": "(47.687497, -122.354965)"
      },
      "geometry": {
        "type": "Point",
        "coordinates": [
          -122.354965,
          47.687497
        ]
      }
    },
    {
      "type": "Feature",
      "properties": {
        "City Feature": "Libraries",
        "Common Name": "High Point",
        "Address": "3411 SW RAYMOND ST",
        "Website": "http://www.spl.org/default.asp?pageID=branch_open&branchID=13",
        "Location": "(47.548042, -122.375814)"
      },
      "geometry": {
        "type": "Point",
        "coordinates": [
          -122.375814,
          47.548042
        ]
      }
    },
    {
      "type": "Feature",
      "properties": {
        "City Feature": "Libraries",
        "Common Name": "South Park Branch",
        "Address": "8604 8th Ave S",
        "Website": "http://www.spl.org/default.asp?pageID=branch_open&branchID=25",
        "Location": "(47.52627, -122.32259)"
      },
      "geometry": {
        "type": "Point",
        "coordinates": [
          -122.32259,
          47.52627
        ]
      }
    },
    {
      "type": "Feature",
      "properties": {
        "City Feature": "Fire Stations",
        "Common Name": "Fire Station #26",
        "Address": "800 S CLOVERDALE ST",
        "Website": "http://www.seattle.gov/fleetsfacilities/firelevy/facilities/fs26/26.htm",
        "Location": "(47.526718, -122.322376)"
      },
      "geometry": {
        "type": "Point",
        "coordinates": [
          -122.322376,
          47.526718
        ]
      }
    },
    {
      "type": "Feature",
      "properties": {
        "City Feature": "Fire Stations",
        "Common Name": "Fire Station #29",
        "Address": "2139 FERRY AV SW",
        "Website": "http://www.seattle.gov/fleetsfacilities/firelevy/facilities/fs29/29.htm",
        "Location": "(47.584393, -122.38875)"
      },
      "geometry": {
        "type": "Point",
        "coordinates": [
          -122.38875,
          47.584393
        ]
      }
    },
    {
      "type": "Feature",
      "properties": {
        "City Feature": "Fire Stations",
        "Common Name": "Fire Station #33",
        "Address": "9645 RENTON AV S",
        "Website": "http://www.seattle.gov/fleetsfacilities/firelevy/facilities/fs33/33.htm",
        "Location": "(47.515927, -122.268662)"
      },
      "geometry": {
        "type": "Point",
        "coordinates": [
          -122.268662,
          47.515927
        ]
      }
    },
    {
      "type": "Feature",
      "properties": {
        "City Feature": "Fire Stations",
        "Common Name": "Fire Station #37",
        "Address": "7300 35TH AV SW",
        "Website": "http://www.seattle.gov/fleetsfacilities/firelevy/facilities/fs37/37.htm",
        "Location": "(47.537193, -122.376158)"
      },
      "geometry": {
        "type": "Point",
        "coordinates": [
          -122.376158,
          47.537193
        ]
      }
    },
    {
      "type": "Feature",
      "properties": {
        "City Feature": "Fire Stations",
        "Common Name": "Fire Station #40",
        "Address": "9401 35TH AV NE",
        "Website": "http://www.seattle.gov/fleetsfacilities/firelevy/facilities/fs40/40.htm",
        "Location": "(47.696768, -122.290937)"
      },
      "geometry": {
        "type": "Point",
        "coordinates": [
          -122.290937,
          47.696768
        ]
      }
    },
    {
      "type": "Feature",
      "properties": {
        "City Feature": "Fire Stations",
        "Common Name": "Fire Station #8",
        "Address": "110 LEE ST",
        "Website": "http://www.seattle.gov/fleetsfacilities/firelevy/facilities/fs08/8.htm",
        "Location": "(47.631175, -122.354985)"
      },
      "geometry": {
        "type": "Point",
        "coordinates": [
          -122.354985,
          47.631175
        ]
      }
    },
    {
      "type": "Feature",
      "properties": {
        "City Feature": "Fire Stations",
        "Common Name": "Fire Station #13",
        "Address": "3601 BEACON AV S",
        "Website": "http://www.seattle.gov/fleetsfacilities/firelevy/facilities/fs13/13.htm",
        "Location": "(47.571742, -122.308646)"
      },
      "geometry": {
        "type": "Point",
        "coordinates": [
          -122.308646,
          47.571742
        ]
      }
    },
    {
      "type": "Feature",
      "properties": {
        "City Feature": "Fire Stations",
        "Common Name": "Fire Station #18",
        "Address": "1521 NW MARKET ST",
        "Website": "http://www.seattle.gov/fleetsfacilities/firelevy/facilities/fs18/18.htm",
        "Location": "(47.66839, -122.377331)"
      },
      "geometry": {
        "type": "Point",
        "coordinates": [
          -122.377331,
          47.66839
        ]
      }
    },
    {
      "type": "Feature",
      "properties": {
        "City Feature": "Fire Stations",
        "Common Name": "Fire Station #22",
        "Address": "901 E ROANOKE ST",
        "Website": "http://www.seattle.gov/fleetsfacilities/firelevy/facilities/fs22/22.htm",
        "Location": "(47.642981, -122.32085)"
      },
      "geometry": {
        "type": "Point",
        "coordinates": [
          -122.32085,
          47.642981
        ]
      }
    },
    {
      "type": "Feature",
      "properties": {
        "City Feature": "Fire Stations",
        "Common Name": "Fire Station #3",
        "Address": "1735 West Thurman",
        "Website": "http://www.seattle.gov/fire/firestations/stations.htm#sta3",
        "Location": "(47.6555, -122.37875)"
      },
      "geometry": {
        "type": "Point",
        "coordinates": [
          -122.37875,
          47.6555
        ]
      }
    },
    {
      "type": "Feature",
      "properties": {
        "City Feature": "Fire Stations",
        "Common Name": "Fire Station #21",
        "Address": "7304 GREENWOOD AV N",
        "Website": "http://www.seattle.gov/fleetsfacilities/firelevy/facilities/fs21/21.htm",
        "Location": "(47.682034, -122.354972)"
      },
      "geometry": {
        "type": "Point",
        "coordinates": [
          -122.354972,
          47.682034
        ]
      }
    },
    {
      "type": "Feature",
      "properties": {
        "City Feature": "Fire Stations",
        "Common Name": "Fire Station #24",
        "Address": "401 N 130TH ST",
        "Website": "http://www.seattle.gov/fleetsfacilities/firelevy/facilities/fs24/24.htm",
        "Location": "(47.723053, -122.353826)"
      },
      "geometry": {
        "type": "Point",
        "coordinates": [
          -122.353826,
          47.723053
        ]
      }
    },
    {
      "type": "Feature",
      "properties": {
        "City Feature": "Fire Stations",
        "Common Name": "Fire Station #27",
        "Address": "1000 S MYRTLE ST",
        "Website": "http://www.seattle.gov/fleetsfacilities/firelevy/facilities/fs27/27.htm",
        "Location": "(47.53966, -122.319907)"
      },
      "geometry": {
        "type": "Point",
        "coordinates": [
          -122.319907,
          47.53966
        ]
      }
    },
    {
      "type": "Feature",
      "properties": {
        "City Feature": "Fire Stations",
        "Common Name": "Fire Station #28",
        "Address": "5968 RAINIER AV S",
        "Website": "http://www.seattle.gov/fleetsfacilities/firelevy/facilities/fs28/28.htm",
        "Location": "(47.548476, -122.276503)"
      },
      "geometry": {
        "type": "Point",
        "coordinates": [
          -122.276503,
          47.548476
        ]
      }
    },
    {
      "type": "Feature",
      "properties": {
        "City Feature": "Fire Stations",
        "Common Name": "Fire Station #30",
        "Address": "2931 S MOUNT BAKER BLVD",
        "Website": "",
        "Location": "(47.575614, -122.294701)"
      },
      "geometry": {
        "type": "Point",
        "coordinates": [
          -122.294701,
          47.575614
        ]
      }
    },
    {
      "type": "Feature",
      "properties": {
        "City Feature": "Fire Stations",
        "Common Name": "Fire Station #31",
        "Address": "1319 N NORTHGATE WY",
        "Website": "http://www.seattle.gov/fleetsfacilities/firelevy/facilities/fs31/31.htm",
        "Location": "(47.704816, -122.341029)"
      },
      "geometry": {
        "type": "Point",
        "coordinates": [
          -122.341029,
          47.704816
        ]
      }
    },
    {
      "type": "Feature",
      "properties": {
        "City Feature": "Fire Stations",
        "Common Name": "Fire Station #32",
        "Address": "3715 SW ALASKA ST",
        "Website": "http://www.seattle.gov/fleetsfacilities/firelevy/facilities/fs32/32.htm",
        "Location": "(47.560813, -122.379741)"
      },
      "geometry": {
        "type": "Point",
        "coordinates": [
          -122.379741,
          47.560813
        ]
      }
    },
    {
      "type": "Feature",
      "properties": {
        "City Feature": "Fire Stations",
        "Common Name": "Fire Station #34",
        "Address": "633 32ND AV E",
        "Website": "http://www.seattle.gov/fleetsfacilities/firelevy/facilities/fs34/34.htm",
        "Location": "(47.626, -122.291334)"
      },
      "geometry": {
        "type": "Point",
        "coordinates": [
          -122.291334,
          47.626
        ]
      }
    },
    {
      "type": "Feature",
      "properties": {
        "City Feature": "Fire Stations",
        "Common Name": "Fire Station #35",
        "Address": "8729 15TH AV NW",
        "Website": "http://www.seattle.gov/fleetsfacilities/firelevy/facilities/fs35/35.htm",
        "Location": "(47.693288, -122.377173)"
      },
      "geometry": {
        "type": "Point",
        "coordinates": [
          -122.377173,
          47.693288
        ]
      }
    },
    {
      "type": "Feature",
      "properties": {
        "City Feature": "Fire Stations",
        "Common Name": "Fire Station #36",
        "Address": "3600 23RD AV SW",
        "Website": "http://www.seattle.gov/fleetsfacilities/firelevy/facilities/fs36/36.htm",
        "Location": "(47.571034, -122.361734)"
      },
      "geometry": {
        "type": "Point",
        "coordinates": [
          -122.361734,
          47.571034
        ]
      }
    },
    {
      "type": "Feature",
      "properties": {
        "City Feature": "Fire Stations",
        "Common Name": "Fire Station #38",
        "Address": "5503 33RD AV NE",
        "Website": "http://www.seattle.gov/fleetsfacilities/firelevy/facilities/fs38/38.htm",
        "Location": "(47.668721, -122.293007)"
      },
      "geometry": {
        "type": "Point",
        "coordinates": [
          -122.293007,
          47.668721
        ]
      }
    },
    {
      "type": "Feature",
      "properties": {
        "City Feature": "Fire Stations",
        "Common Name": "Fire Station #39",
        "Address": "12705 30TH AV NE",
        "Website": "http://www.seattle.gov/fleetsfacilities/firelevy/facilities/fs39/39.htm",
        "Location": "(47.721342, -122.296691)"
      },
      "geometry": {
        "type": "Point",
        "coordinates": [
          -122.296691,
          47.721342
        ]
      }
    },
    {
      "type": "Feature",
      "properties": {
        "City Feature": "Fire Stations",
        "Common Name": "Fire Station #41",
        "Address": "2416 34TH AV W",
        "Website": "http://www.seattle.gov/fleetsfacilities/firelevy/facilities/fs41/41.htm",
        "Location": "(47.640129, -122.400527)"
      },
      "geometry": {
        "type": "Point",
        "coordinates": [
          -122.400527,
          47.640129
        ]
      }
    },
    {
      "type": "Feature",
      "properties": {
        "City Feature": "Fire Stations",
        "Common Name": "Fire Station #2",
        "Address": "301 Aurora Ave N",
        "Website": "http://www.seattle.gov/fleetsfacilities/firelevy/facilities/fs02/2.htm",
        "Location": "(47.616188, -122.344737)"
      },
      "geometry": {
        "type": "Point",
        "coordinates": [
          -122.344737,
          47.616188
        ]
      }
    },
    {
      "type": "Feature",
      "properties": {
        "City Feature": "Fire Stations",
        "Common Name": "Fire Station #5",
        "Address": "925 ALASKAN WY",
        "Website": "http://www.seattle.gov/fire/firestations/stations.htm#sta5",
        "Location": "(47.603643, -122.338829)"
      },
      "geometry": {
        "type": "Point",
        "coordinates": [
          -122.338829,
          47.603643
        ]
      }
    },
    {
      "type": "Feature",
      "properties": {
        "City Feature": "Fire Stations",
        "Common Name": "Fire Station #6",
        "Address": "101 23RD AV S",
        "Website": "http://www.seattle.gov/fleetsfacilities/firelevy/facilities/fs06/6.htm",
        "Location": "(47.601462, -122.302712)"
      },
      "geometry": {
        "type": "Point",
        "coordinates": [
          -122.302712,
          47.601462
        ]
      }
    },
    {
      "type": "Feature",
      "properties": {
        "City Feature": "Fire Stations",
        "Common Name": "Fire Station #9",
        "Address": "3829 LINDEN AV N",
        "Website": "http://www.seattle.gov/fleetsfacilities/firelevy/facilities/fs09/9.htm",
        "Location": "(47.653625, -122.348885)"
      },
      "geometry": {
        "type": "Point",
        "coordinates": [
          -122.348885,
          47.653625
        ]
      }
    },
    {
      "type": "Feature",
      "properties": {
        "City Feature": "Fire Stations",
        "Common Name": "Fire Station #10",
        "Address": "400 S WASHINGTON ST",
        "Website": "http://www.seattle.gov/fleetsfacilities/firelevy/facilities/fs10/10.htm",
        "Location": "(47.599846, -122.331979)"
      },
      "geometry": {
        "type": "Point",
        "coordinates": [
          -122.331979,
          47.599846
        ]
      }
    },
    {
      "type": "Feature",
      "properties": {
        "City Feature": "Fire Stations",
        "Common Name": "Fire Station #11",
        "Address": "1514 SW HOLDEN ST",
        "Website": "http://www.seattle.gov/fleetsfacilities/firelevy/facilities/fs11/11.htm",
        "Location": "(47.533934, -122.354695)"
      },
      "geometry": {
        "type": "Point",
        "coordinates": [
          -122.354695,
          47.533934
        ]
      }
    },
    {
      "type": "Feature",
      "properties": {
        "City Feature": "Fire Stations",
        "Common Name": "Fire Station #14",
        "Address": "3224 4TH AV S",
        "Website": "http://www.seattle.gov/fleetsfacilities/firelevy/facilities/fs14/14.htm",
        "Location": "(47.574617, -122.328559)"
      },
      "geometry": {
        "type": "Point",
        "coordinates": [
          -122.328559,
          47.574617
        ]
      }
    },
    {
      "type": "Feature",
      "properties": {
        "City Feature": "Fire Stations",
        "Common Name": "Fire Station #16",
        "Address": "6846 OSWEGO PL NE",
        "Website": "http://www.seattle.gov/fleetsfacilities/firelevy/facilities/fs16/16.htm",
        "Location": "(47.679124, -122.323198)"
      },
      "geometry": {
        "type": "Point",
        "coordinates": [
          -122.323198,
          47.679124
        ]
      }
    },
    {
      "type": "Feature",
      "properties": {
        "City Feature": "Fire Stations",
        "Common Name": "Fire Station #17",
        "Address": "4557 11th Avenue NE",
        "Website": "http://www.seattle.gov/fleetsfacilities/firelevy/facilities/fs17/17.htm",
        "Location": "(47.665167, -122.316659)"
      },
      "geometry": {
        "type": "Point",
        "coordinates": [
          -122.316659,
          47.665167
        ]
      }
    },
    {
      "type": "Feature",
      "properties": {
        "City Feature": "Fire Stations",
        "Common Name": "Fire Station #20",
        "Address": "3205 13TH AV W",
        "Website": "http://www.seattle.gov/fleetsfacilities/firelevy/facilities/fs20/20.htm",
        "Location": "(47.648813, -122.373859)"
      },
      "geometry": {
        "type": "Point",
        "coordinates": [
          -122.373859,
          47.648813
        ]
      }
    },
    {
      "type": "Feature",
      "properties": {
        "City Feature": "Fire Stations",
        "Common Name": "Fire Headquarters",
        "Address": "301 2nd Ave",
        "Website": "http://www.seattle.gov/fire/firestations/stations.htm#staHQ",
        "Location": "(47.59986, -122.33195)"
      },
      "geometry": {
        "type": "Point",
        "coordinates": [
          -122.33195,
          47.59986
        ]
      }
    },
    {
      "type": "Feature",
      "properties": {
        "City Feature": "Police Precincts",
        "Common Name": "East",
        "Address": "1519  12TH AVE",
        "Website": "http://www.seattle.gov/police/Precincts/East/default.htm",
        "Location": "(47.614945, -122.317119)"
      },
      "geometry": {
        "type": "Point",
        "coordinates": [
          -122.317119,
          47.614945
        ]
      }
    },
    {
      "type": "Feature",
      "properties": {
        "City Feature": "Police Precincts",
        "Common Name": "South",
        "Address": "3001  S MYRTLE ST",
        "Website": "http://www.seattle.gov/police/Precincts/South/default.htm",
        "Location": "(47.538574, -122.293356)"
      },
      "geometry": {
        "type": "Point",
        "coordinates": [
          -122.293356,
          47.538574
        ]
      }
    },
    {
      "type": "Feature",
      "properties": {
        "City Feature": "Police Precincts",
        "Common Name": "Southwest",
        "Address": "2300  SW WEBSTER ST",
        "Website": "http://www.seattle.gov/police/Precincts/Southwest/default.htm",
        "Location": "(47.535895, -122.362016)"
      },
      "geometry": {
        "type": "Point",
        "coordinates": [
          -122.362016,
          47.535895
        ]
      }
    },
    {
      "type": "Feature",
      "properties": {
        "City Feature": "Police Precincts",
        "Common Name": "West",
        "Address": "810  VIRGINIA ST",
        "Website": "http://www.seattle.gov/police/Precincts/West/default.htm",
        "Location": "(47.615921, -122.336591)"
      },
      "geometry": {
        "type": "Point",
        "coordinates": [
          -122.336591,
          47.615921
        ]
      }
    },
    {
      "type": "Feature",
      "properties": {
        "City Feature": "Police Precincts",
        "Common Name": "North",
        "Address": "10049  COLLEGE WAY N",
        "Website": "http://www.seattle.gov/police/Precincts/North/default.htm",
        "Location": "(47.702929, -122.334707)"
      },
      "geometry": {
        "type": "Point",
        "coordinates": [
          -122.334707,
          47.702929
        ]
      }
    },
    {
      "type": "Feature",
      "properties": {
        "City Feature": "Pet License Sales",
        "Common Name": "Seattle Animal Shelter",
        "Address": "2061 15th Ave W",
        "Website": "http://www.seattle.gov/animalshelter/licenses",
        "Location": "(47.63837, -122.37654)"
      },
      "geometry": {
        "type": "Point",
        "coordinates": [
          -122.37654,
          47.63837
        ]
      }
    },
    {
      "type": "Feature",
      "properties": {
        "City Feature": "Pet License Sales",
        "Common Name": "Magnolia Veterinary Hospital",
        "Address": "2201 34th Ave W",
        "Website": "http://www.magnoliavethospital.com",
        "Location": "(47.63938, -122.40141)"
      },
      "geometry": {
        "type": "Point",
        "coordinates": [
          -122.40141,
          47.63938
        ]
      }
    },
    {
      "type": "Feature",
      "properties": {
        "City Feature": "Pet License Sales",
        "Common Name": "Phinney Ridge Animal Hospital",
        "Address": "8205 Greenwood Ave N",
        "Website": "http://seattle.gov/animalshelter/licenses.htm#Purchase",
        "Location": "(47.68866, -122.35558)"
      },
      "geometry": {
        "type": "Point",
        "coordinates": [
          -122.35558,
          47.68866
        ]
      }
    },
    {
      "type": "Feature",
      "properties": {
        "City Feature": "Pet License Sales",
        "Common Name": "Sunset Hill Veterinary And Rehabilitation",
        "Address": "2403 NW Market St",
        "Website": "http://www.sunsethillvet.com",
        "Location": "(47.668397, -122.387878)"
      },
      "geometry": {
        "type": "Point",
        "coordinates": [
          -122.387878,
          47.668397
        ]
      }
    },
    {
      "type": "Feature",
      "properties": {
        "City Feature": "Pet License Sales",
        "Common Name": "Paws Cat City Adoption Center",
        "Address": "8503 Greenwood Ave N",
        "Website": "http://www.paws.org/cas/catcity",
        "Location": "(47.690723, -122.355517)"
      },
      "geometry": {
        "type": "Point",
        "coordinates": [
          -122.355517,
          47.690723
        ]
      }
    },
    {
      "type": "Feature",
      "properties": {
        "City Feature": "Pet License Sales",
        "Common Name": "Seattle Municipal Tower",
        "Address": "700 5th Ave.  Suite 4250",
        "Website": "http://seattle.gov/animalshelter/licenses.htm#Purchase",
        "Location": "(47.604994, -122.329875)"
      },
      "geometry": {
        "type": "Point",
        "coordinates": [
          -122.329875,
          47.604994
        ]
      }
    },
    {
      "type": "Feature",
      "properties": {
        "City Feature": "Pet License Sales",
        "Common Name": "Ballard Animal Hospital",
        "Address": "4368 Leary Way NW",
        "Website": "http://www.ballardanimalhospital.com",
        "Location": "(47.660611, -122.365663)"
      },
      "geometry": {
        "type": "Point",
        "coordinates": [
          -122.365663,
          47.660611
        ]
      }
    },
    {
      "type": "Feature",
      "properties": {
        "City Feature": "Pet License Sales",
        "Common Name": "Banfield: The Pet Hospital",
        "Address": "13000 Aurora Ave N",
        "Website": "http://www.banfield.net/hospital/view/657",
        "Location": "(47.723367, -122.343731)"
      },
      "geometry": {
        "type": "Point",
        "coordinates": [
          -122.343731,
          47.723367
        ]
      }
    },
    {
      "type": "Feature",
      "properties": {
        "City Feature": "Pet License Sales",
        "Common Name": "Carkeek Park Veterinary Hospital",
        "Address": "9756 Holman Rd NW",
        "Website": "http://www.carkeekparkvh.com",
        "Location": "(47.700658, -122.363672)"
      },
      "geometry": {
        "type": "Point",
        "coordinates": [
          -122.363672,
          47.700658
        ]
      }
    },
    {
      "type": "Feature",
      "properties": {
        "City Feature": "Pet License Sales",
        "Common Name": "Hawthorne Hills Veterinary Hospital",
        "Address": "4020 NE 55th St",
        "Website": "http://www.hhvh.net",
        "Location": "(47.66886, -122.283956)"
      },
      "geometry": {
        "type": "Point",
        "coordinates": [
          -122.283956,
          47.66886
        ]
      }
    },
    {
      "type": "Feature",
      "properties": {
        "City Feature": "Pet License Sales",
        "Common Name": "Lien Animal Clinic",
        "Address": "3710 SW Alaska St",
        "Website": "http://www.lienanimal.com",
        "Location": "(47.561217, -122.379296)"
      },
      "geometry": {
        "type": "Point",
        "coordinates": [
          -122.379296,
          47.561217
        ]
      }
    },
    {
      "type": "Feature",
      "properties": {
        "City Feature": "Pet License Sales",
        "Common Name": "Maple Leaf Veterinary Care Center",
        "Address": "1421 NE 80th St",
        "Website": "http://www.mapleleafvet.com",
        "Location": "(47.686515, -122.312366)"
      },
      "geometry": {
        "type": "Point",
        "coordinates": [
          -122.312366,
          47.686515
        ]
      }
    },
    {
      "type": "Feature",
      "properties": {
        "City Feature": "Pet License Sales",
        "Common Name": "Northgate Veterinary Clinic",
        "Address": "12345 15th Ave NE",
        "Website": "http://www.northgatevet.com",
        "Location": "(47.718912, -122.313191)"
      },
      "geometry": {
        "type": "Point",
        "coordinates": [
          -122.313191,
          47.718912
        ]
      }
    },
    {
      "type": "Feature",
      "properties": {
        "City Feature": "Pet License Sales",
        "Common Name": "Pet Care Center Veterinary Hospital",
        "Address": "2950 SW Avalon Way",
        "Website": "http://seattle.gov/animalshelter/licenses.htm#Purchase",
        "Location": "(47.56938, -122.371021)"
      },
      "geometry": {
        "type": "Point",
        "coordinates": [
          -122.371021,
          47.56938
        ]
      }
    },
    {
      "type": "Feature",
      "properties": {
        "City Feature": "Pet License Sales",
        "Common Name": "Rainier Beach Veterinary Hospital",
        "Address": "9238 Rainier Ave S",
        "Website": "http://seattle.gov/animalshelter/licenses.htm#Purchase",
        "Location": "(47.520126, -122.269138)"
      },
      "geometry": {
        "type": "Point",
        "coordinates": [
          -122.269138,
          47.520126
        ]
      }
    },
    {
      "type": "Feature",
      "properties": {
        "City Feature": "Pet License Sales",
        "Common Name": "Urban Vet",
        "Address": "1405 Elliott Ave W  Suite 100",
        "Website": "http://www.urbanvet.vetsourceweb.com",
        "Location": "(47.630343, -122.374113)"
      },
      "geometry": {
        "type": "Point",
        "coordinates": [
          -122.374113,
          47.630343
        ]
      }
    },
    {
      "type": "Feature",
      "properties": {
        "City Feature": "Pet License Sales",
        "Common Name": "West Seattle Animal Hospital",
        "Address": "4714 42nd Ave SW",
        "Website": "http://www.westseattleanimalsea.com",
        "Location": "(47.560244, -122.384954)"
      },
      "geometry": {
        "type": "Point",
        "coordinates": [
          -122.384954,
          47.560244
        ]
      }
    },
    {
      "type": "Feature",
      "properties": {
        "City Feature": "Pet License Sales",
        "Common Name": "Maple Leaf Pet Corner",
        "Address": "8300 Lake City Wy NE",
        "Website": "http://www.mapleleafpetcorner.com",
        "Location": "(47.68966, -122.30877)"
      },
      "geometry": {
        "type": "Point",
        "coordinates": [
          -122.30877,
          47.68966
        ]
      }
    },
    {
      "type": "Feature",
      "properties": {
        "City Feature": "Public Toilets",
        "Common Name": "Lake City",
        "Address": "Lake City Way NE and NE 125th St",
        "Website": "",
        "Location": "(47.71941, -122.294774)"
      },
      "geometry": {
        "type": "Point",
        "coordinates": [
          -122.294774,
          47.71941
        ]
      }
    },
    {
      "type": "Feature",
      "properties": {
        "City Feature": "Public Toilets",
        "Common Name": "Ballard",
        "Address": "2021 NW Market St",
        "Website": "",
        "Location": "(47.66845, -122.38335)"
      },
      "geometry": {
        "type": "Point",
        "coordinates": [
          -122.38335,
          47.66845
        ]
      }
    },
    {
      "type": "Feature",
      "properties": {
        "City Feature": "Public Toilets",
        "Common Name": "University Way",
        "Address": "NE corner of 5031 University Wy NE property",
        "Website": "",
        "Location": "(47.665678, -122.313685)"
      },
      "geometry": {
        "type": "Point",
        "coordinates": [
          -122.313685,
          47.665678
        ]
      }
    },
    {
      "type": "Feature",
      "properties": {
        "City Feature": "Public Toilets",
        "Common Name": "West Seattle",
        "Address": "SW Alaska St and California Av SW",
        "Website": "",
        "Location": "(47.561264, -122.387136)"
      },
      "geometry": {
        "type": "Point",
        "coordinates": [
          -122.387136,
          47.561264
        ]
      }
    },
    {
      "type": "Feature",
      "properties": {
        "City Feature": "Public Toilets",
        "Common Name": "Queen Anne",
        "Address": "2nd Ave W and W. Thomas St",
        "Website": "",
        "Location": "(47.621118, -122.353355)"
      },
      "geometry": {
        "type": "Point",
        "coordinates": [
          -122.353355,
          47.621118
        ]
      }
    },
    {
      "type": "Feature",
      "properties": {
        "City Feature": "ParkNRide",
        "Common Name": "Holy Family Church",
        "Address": "SW Roxbury St and 20th Ave SW",
        "Website": "http://transit.metrokc.gov/tops/parknride/pr-south-seattle.html",
        "Location": "(47.517546, -122.359523)"
      },
      "geometry": {
        "type": "Point",
        "coordinates": [
          -122.359523,
          47.517546
        ]
      }
    },
    {
      "type": "Feature",
      "properties": {
        "City Feature": "ParkNRide",
        "Common Name": "Calvary Christian Assembly Church",
        "Address": "6810 8th Ave NE",
        "Website": "http://transit.metrokc.gov/tops/parknride/pr-seattle.html",
        "Location": "(47.678416, -122.319488)"
      },
      "geometry": {
        "type": "Point",
        "coordinates": [
          -122.319488,
          47.678416
        ]
      }
    },
    {
      "type": "Feature",
      "properties": {
        "City Feature": "ParkNRide",
        "Common Name": "Northgate Transit Center",
        "Address": "10200 1st Ave NE",
        "Website": "http://transit.metrokc.gov/tops/parknride/pr-north-seattle.html",
        "Location": "(47.702249, -122.32725)"
      },
      "geometry": {
        "type": "Point",
        "coordinates": [
          -122.32725,
          47.702249
        ]
      }
    },
    {
      "type": "Feature",
      "properties": {
        "City Feature": "ParkNRide",
        "Common Name": "Lamb Of God Church",
        "Address": "12509 27th Ave NE",
        "Website": "http://transit.metrokc.gov/tops/parknride/pr-north-seattle.html",
        "Location": "(47.71964, -122.29971)"
      },
      "geometry": {
        "type": "Point",
        "coordinates": [
          -122.29971,
          47.71964
        ]
      }
    },
    {
      "type": "Feature",
      "properties": {
        "City Feature": "ParkNRide",
        "Common Name": "Northgate Mall P&R Garage",
        "Address": "NE 103rd & 1st Ave NE",
        "Website": "http://transit.metrokc.gov/tops/parknride/pr-north-seattle.html",
        "Location": "(47.70318, -122.32853)"
      },
      "geometry": {
        "type": "Point",
        "coordinates": [
          -122.32853,
          47.70318
        ]
      }
    },
    {
      "type": "Feature",
      "properties": {
        "City Feature": "ParkNRide",
        "Common Name": "Northgate P&R Garage",
        "Address": "300 NE Northgate Way",
        "Website": "http://transit.metrokc.gov/tops/parknride/pr-north-seattle.html",
        "Location": "(47.70911, -122.32529)"
      },
      "geometry": {
        "type": "Point",
        "coordinates": [
          -122.32529,
          47.70911
        ]
      }
    },
    {
      "type": "Feature",
      "properties": {
        "City Feature": "ParkNRide",
        "Common Name": "South Jackson Park Park And Ride",
        "Address": "5th Ave NE and NE 133rd St",
        "Website": "http://transit.metrokc.gov/tops/parknride/pr-north-seattle.html",
        "Location": "(47.726165, -122.323863)"
      },
      "geometry": {
        "type": "Point",
        "coordinates": [
          -122.323863,
          47.726165
        ]
      }
    },
    {
      "type": "Feature",
      "properties": {
        "City Feature": "ParkNRide",
        "Common Name": "Prince Of Peace Lutheran Church",
        "Address": "14514 20th Ave NE",
        "Website": "http://transit.metrokc.gov/tops/parknride/pr-north-seattle.html",
        "Location": "(47.734031, -122.306827)"
      },
      "geometry": {
        "type": "Point",
        "coordinates": [
          -122.306827,
          47.734031
        ]
      }
    },
    {
      "type": "Feature",
      "properties": {
        "City Feature": "ParkNRide",
        "Common Name": "Airport And Spokane Park And Ride",
        "Address": "Airport Wy S and S Spokane St",
        "Website": "http://transit.metrokc.gov/tops/parknride/pr-south-seattle.html",
        "Location": "(47.571971, -122.323091)"
      },
      "geometry": {
        "type": "Point",
        "coordinates": [
          -122.323091,
          47.571971
        ]
      }
    },
    {
      "type": "Feature",
      "properties": {
        "City Feature": "Landmarks",
        "Common Name": "Seattle Labor Temple",
        "Address": "2800 1st Ave",
        "Website": "",
        "Location": "(47.61683, -122.35176)"
      },
      "geometry": {
        "type": "Point",
        "coordinates": [
          -122.35176,
          47.61683
        ]
      }
    },
    {
      "type": "Feature",
      "properties": {
        "City Feature": "ParkNRide",
        "Common Name": "Olson Pl And Meyers Wy Park And Ride",
        "Address": "9000 Olson Pl SW",
        "Website": "http://transit.metrokc.gov/tops/parknride/pr-south-seattle.html",
        "Location": "(47.521187, -122.33548)"
      },
      "geometry": {
        "type": "Point",
        "coordinates": [
          -122.33548,
          47.521187
        ]
      }
    },
    {
      "type": "Feature",
      "properties": {
        "City Feature": "ParkNRide",
        "Common Name": "Sonrise Evangelical Church",
        "Address": "610 SW Roxbury",
        "Website": "http://transit.metrokc.gov/tops/parknride/pr-south-seattle.html",
        "Location": "(47.517554, -122.343341)"
      },
      "geometry": {
        "type": "Point",
        "coordinates": [
          -122.343341,
          47.517554
        ]
      }
    },
    {
      "type": "Feature",
      "properties": {
        "City Feature": "ParkNRide",
        "Common Name": "Sw Spokane St",
        "Address": "3599 26th Ave SW",
        "Website": "http://transit.metrokc.gov/tops/parknride/pr-south-seattle.html",
        "Location": "(47.571901, -122.366894)"
      },
      "geometry": {
        "type": "Point",
        "coordinates": [
          -122.366894,
          47.571901
        ]
      }
    },
    {
      "type": "Feature",
      "properties": {
        "City Feature": "ParkNRide",
        "Common Name": "Green Lake Park And Ride",
        "Address": "6601 8th Ave NE",
        "Website": "http://transit.metrokc.gov/tops/parknride/pr-seattle.html",
        "Location": "(47.676462, -122.320829)"
      },
      "geometry": {
        "type": "Point",
        "coordinates": [
          -122.320829,
          47.676462
        ]
      }
    },
    {
      "type": "Feature",
      "properties": {
        "City Feature": "ParkNRide",
        "Common Name": "North Jackson Park Park And Ride",
        "Address": "5th Ave NE and NE 145th St",
        "Website": "http://transit.metrokc.gov/tops/parknride/pr-north-seattle.html",
        "Location": "(47.734479, -122.323219)"
      },